[
  {
    "name": "水溝不通",
    "event": "水溝不通",
    "region": "桃園區",
    "status": "待處理",
    "lat": 24.9889,
    "lng": 121.3113,
    "date": "2024-03-01"
  },
  {
    "name": "小狗迷路",
    "event": "小狗迷路",
    "region": "龜山區",
    "status": "處理中",
    "lat": 24.9933,
    "lng": 121.332,
    "date": "2024-03-02"
  },
  {
    "name": "停水停電",
    "event": "停水停電",
    "region": "中壢區",
    "status": "處理完成",
    "lat": 24.9539,
    "lng": 121.2251,
    "date": "2024-03-03"
  },
  {
    "name": "手機沒電",
    "event": "手機沒電",
    "region": "桃園區",
    "status": "待處理",
    "lat": 24.9835,
    "lng": 121.3,
    "date": "2024-03-04"
  },
  {
    "name": "水溝不通",
    "event": "水溝不通",
    "region": "龜山區",
    "status": "處理中",
    "lat": 24.9931,
    "lng": 121.3393,
    "date": "2024-03-05"
  },
  {
    "name": "小狗迷路",
    "event": "小狗迷路",
    "region": "中壢區",
    "status": "處理完成",
    "lat": 24.9593,
    "lng": 121.2056,
    "date": "2024-03-06"
  },
  {
    "name": "停水停電",
    "event": "停水停電",
    "region": "桃園區",
    "status": "待處理",
    "lat": 24.9785,
    "lng": 121.2561,
    "date": "2024-03-07"
  },
  {
    "name": "手機沒電",
    "event": "手機沒電",
    "region": "龜山區",
    "status": "處理中",
    "lat": 24.9975,
    "lng": 121.3389,
    "date": "2024-03-08"
  },
  {
    "name": "水溝不通",
    "event": "水溝不通",
    "region": "中壢區",
    "status": "處理完成",
    "lat": 24.9534,
    "lng": 121.2311,
    "date": "2024-03-09"
  },
  {
    "name": "小狗迷路",
    "event": "小狗迷路",
    "region": "桃園區",
    "status": "待處理",
    "lat": 24.9918,
    "lng": 121.3015,
    "date": "2024-03-10"
  },
  {
    "name": "停水停電",
    "event": "停水停電",
    "region": "桃園區",
    "status": "處理中",
    "lat": 24.9843,
    "lng": 121.3021,
    "date": "2024-03-11"
  },
  {
    "name": "手機沒電",
    "event": "手機沒電",
    "region": "龜山區",
    "status": "處理完成",
    "lat": 24.9948,
    "lng": 121.3411,
    "date": "2024-03-12"
  },
  {
    "name": "水溝不通",
    "event": "水溝不通",
    "region": "中壢區",
    "status": "待處理",
    "lat": 24.9578,
    "lng": 121.2269,
    "date": "2024-03-13"
  },
  {
    "name": "小狗迷路",
    "event": "小狗迷路",
    "region": "桃園區",
    "status": "處理中",
    "lat": 24.9821,
    "lng": 121.3104,
    "date": "2024-03-14"
  },
  {
    "name": "停水停電",
    "event": "停水停電",
    "region": "龜山區",
    "status": "處理完成",
    "lat": 24.9949,
    "lng": 121.3371,
    "date": "2024-03-15"
  },
  {
    "name": "手機沒電",
    "event": "手機沒電",
    "region": "中壢區",
    "status": "待處理",
    "lat": 24.9598,
    "lng": 121.2087,
    "date": "2024-03-16"
  },
  {
    "name": "水溝不通",
    "event": "水溝不通",
    "region": "桃園區",
    "status": "處理中",
    "lat": 24.9789,
    "lng": 121.2554,
    "date": "2024-03-17"
  },
  {
    "name": "小狗迷路",
    "event": "小狗迷路",
    "region": "龜山區",
    "status": "處理完成",
    "lat": 24.9911,
    "lng": 121.34,
    "date": "2024-03-18"
  },
  {
    "name": "停水停電",
    "event": "停水停電",
    "region": "中壢區",
    "status": "待處理",
    "lat": 24.9536,
    "lng": 121.2305,
    "date": "2024-03-19"
  },
  {
    "name": "手機沒電",
    "event": "手機沒電",
    "region": "桃園區",
    "status": "處理中",
    "lat": 24.9912,
    "lng": 121.3009,
    "date": "2024-03-20"
  }
]
